pincode,lat,long,label
200131,7.384004,3.848348,"Marantha Pharmacy Ltd., IAR&T Campus, Moor Plantation, Apata 200131, Ibadan, Oyo, Nigeria; Call 08033189558; +234 803 318 9558; RV available"
111102,7.140157,3.335509,"Precious Pharmacy, 114 Awolowo Avenue, Omida Road, Ibara, Abeokuta, Nigeria; Call +234 8173184095; RV available"
200262,7.382896,3.829004,"Fortis Pharmacy and Stores, 92 Apata Road, Opp. Wema Bank, Ibadan 200262; Call 09082757578; RV available"
100261,6.565984,3.339275,"Matrix-36, Skyrace Plaza, 1, Ileshomi Street, Shogunle, Lagos, 100261, Nigeria; Call +2348094707460; Email pharmacy@matrix36.com; RV available, RIG available"
211221,7.844351,3.934502,"Living Faith Pharmacy, Ilaka Area, Akesan Market Road, Oyo 211221, Nigeria; Call +2348035022778; RV available"
